{
  "status": 200,
  "count": 10,
  "objects": [
    {
      "hash_id": "2ad0ad7bf8d586af1c988124b83305ab",
      "name": "реконструкція частини чердака у житлову мансарду та будівництво сарая, по вул. кутузова буд. 29 у лівобережному районі м. маріуполя, донецької області",
      "description": null,
      "lon": "37.65478540162665",
      "lat": "47.111312418464756",
      "address": "донецька обл., маріупольський район, маріупольська територіальна громада, м. маріуполь (станом на 01.01.2021), вулиця кутузова, 29",
      "address_description": null,
      "formatted_address": "Донецька область, м Маріуполь, вул Кутузова, 29",
      "postal_code": null,
      "country": null,
      "region": "Донецька область",
      "district": "Маріупольський р-н",
      "town": "м Маріуполь",
      "borough": null,
      "street": "вул Кутузова",
      "build_num": "29",
      "dk_018_2000": null,
      "aimap_classifier": "Будівлі АПК",
      "consequence_class": "1",
      "object_type": null,
      "stage_documentation": "повідомлення про початок виконання будівельних робіт",
      "stage_building": "дозволено",
      "construction_type": "реконструкція",
      "construction_method": null,
      "date_reg": null,
      "date_added": "2021-07-28T00:00:00Z",
      "date_updated": null,
      "object_square": null,
      "floors_number": null,
      "myo_id": null,
      "projdoc_id": null,
      "cd_doc_id": null
    },
    {
      "hash_id": "06232b7112adb8f79c076c252000ae29",
      "name": "реконструкція господарської будівлі (гараж)",
      "description": null,
      "lon": "32.300737031128584",
      "lat": "48.49772598752274",
      "address": "кіровоградська обл., кропивницький район, кропивницька територіальна громада, м. кропивницький (станом на 01.01.2021), вулиця тюленіна сергія, 18",
      "address_description": null,
      "formatted_address": "Кіровоградська область, м Кропивницький, вул Тюленіна Сергія, 18",
      "postal_code": null,
      "country": null,
      "region": "Кіровоградська область",
      "district": "Кропивницький район",
      "town": "м Кропивницький",
      "borough": null,
      "street": "вул Тюленіна Сергія",
      "build_num": "18",
      "dk_018_2000": null,
      "aimap_classifier": "Гаражі, стоянки, СТО",
      "consequence_class": "1",
      "object_type": null,
      "stage_documentation": "повідомлення про початок виконання будівельних робіт",
      "stage_building": "дозволено",
      "construction_type": "реконструкція",
      "construction_method": null,
      "date_reg": null,
      "date_added": "2021-07-28T00:00:00Z",
      "date_updated": null,
      "object_square": null,
      "floors_number": null,
      "myo_id": null,
      "projdoc_id": null,
      "cd_doc_id": null
    },
    {
      "hash_id": "e3c5e1b9614664051930aaa139ef3e03",
      "name": "будівництво господарської будівлі (сараю)",
      "description": null,
      "lon": "33.276433868083515",
      "lat": "47.32086389503682",
      "address": "херсонська обл., бериславський район, великоолександрівська територіальна громада, смт велика олександрівка (станом на 01.01.2021), вулиця недогірська, 68 а",
      "address_description": null,
      "formatted_address": "Херсонська область, смт Велика Олександрівка, вул Недогірська, 68",
      "postal_code": null,
      "country": null,
      "region": "Херсонська область",
      "district": "Бериславський район",
      "town": "смт Велика Олександрівка",
      "borough": null,
      "street": "вул Недогірська",
      "build_num": "68",
      "dk_018_2000": null,
      "aimap_classifier": "Будівлі АПК",
      "consequence_class": "1",
      "object_type": null,
      "stage_documentation": "повідомлення про початок виконання будівельних робіт",
      "stage_building": "дозволено",
      "construction_type": "нове будівництво",
      "construction_method": null,
      "date_reg": null,
      "date_added": "2021-07-28T00:00:00Z",
      "date_updated": null,
      "object_square": null,
      "floors_number": null,
      "myo_id": null,
      "projdoc_id": null,
      "cd_doc_id": null
    },
    {
      "hash_id": "657b5f4f777105a6e9dea05e933da902",
      "name": "нове будівництво господарської будівлі на приватизованій земельній ділянці",
      "description": null,
      "lon": "28.509868937210673",
      "lat": "49.218216556966496",
      "address": "вінницька обл., вінницький район, вінницька територіальна громада, м. вінниця (станом на 01.01.2021), вулиця бучми, 30",
      "address_description": null,
      "formatted_address": "Вінницька область, м Вінниця, вул Бучми, 30",
      "postal_code": null,
      "country": null,
      "region": "Вінницька область",
      "district": "Вінницький район",
      "town": "м Вінниця",
      "borough": null,
      "street": "вул Бучми",
      "build_num": "30",
      "dk_018_2000": null,
      "aimap_classifier": "Будівлі АПК",
      "consequence_class": "1",
      "object_type": null,
      "stage_documentation": "повідомлення про початок виконання будівельних робіт",
      "stage_building": "дозволено",
      "construction_type": "нове будівництво",
      "construction_method": null,
      "date_reg": null,
      "date_added": "2021-07-28T00:00:00Z",
      "date_updated": null,
      "object_square": null,
      "floors_number": null,
      "myo_id": null,
      "projdoc_id": null,
      "cd_doc_id": null
    },
    {
      "hash_id": "71f18cb79f3323ead7bead71fbc4855f",
      "name": "будівництво господарської будівлі на вул. зерова,17 в м.дубно",
      "description": null,
      "lon": "25.75732940079263",
      "lat": "50.404832382770905",
      "address": "рівненська обл., дубенський район, дубенська територіальна громада, м. дубно (станом на 01.01.2021), вулиця зерова миколи, 17",
      "address_description": null,
      "formatted_address": "Рівненська область, м Дубно, вул Миколи Зерова, 17",
      "postal_code": null,
      "country": null,
      "region": "Рівненська область",
      "district": "Дубенський район",
      "town": "м Дубно",
      "borough": null,
      "street": "вул Миколи Зерова",
      "build_num": "17",
      "dk_018_2000": null,
      "aimap_classifier": "Будівлі АПК",
      "consequence_class": "1",
      "object_type": null,
      "stage_documentation": "повідомлення про початок виконання будівельних робіт",
      "stage_building": "дозволено",
      "construction_type": "нове будівництво",
      "construction_method": null,
      "date_reg": null,
      "date_added": "2021-07-28T00:00:00Z",
      "date_updated": null,
      "object_square": null,
      "floors_number": null,
      "myo_id": null,
      "projdoc_id": null,
      "cd_doc_id": null
    },
    {
      "hash_id": "cf4503303d704d56a0da2df05f51eca4",
      "name": "будівництво індивідуального гаражу, господарських будівель і споруд",
      "description": null,
      "lon": "29.5774782702735",
      "lat": "45.40047632547746",
      "address": "одеська обл., ізмаїльський район, вилківська територіальна громада (ua51080010000087690), м.вилкове, вул.солов'їна, 21",
      "address_description": null,
      "formatted_address": "Одеська область, с Громада, Солов'їна вулиця, 21",
      "postal_code": "68355",
      "country": "Україна",
      "region": "Одеська область",
      "district": "Ізмаїльський район",
      "town": "с Громада",
      "borough": null,
      "street": "Солов'їна вулиця",
      "build_num": "21",
      "dk_018_2000": null,
      "aimap_classifier": "Гаражі, стоянки, СТО",
      "consequence_class": "1",
      "object_type": null,
      "stage_documentation": "повідомлення про початок виконання будівельних робіт",
      "stage_building": "дозволено",
      "construction_type": "нове будівництво",
      "construction_method": null,
      "date_reg": null,
      "date_added": "2021-07-28T00:00:00Z",
      "date_updated": null,
      "object_square": null,
      "floors_number": null,
      "myo_id": null,
      "projdoc_id": null,
      "cd_doc_id": null
    },
    {
      "hash_id": "0c918187a2f2aeb312572322a7ba4397",
      "name": "нове будівництво господарської будівлі (гараж, сарай) на власній земельній ділянці",
      "description": null,
      "lon": "28.64164453638343",
      "lat": "50.25835412050528",
      "address": "житомирська обл., житомирський район, житомирська територіальна громада, м. житомир (станом на 01.01.2021), провулок кармелюка 1, 5",
      "address_description": null,
      "formatted_address": "Житомирська область, м Житомир, пров 1-й Кармелюка, 5",
      "postal_code": null,
      "country": null,
      "region": "Житомирська область",
      "district": "Житомирський район",
      "town": "м Житомир",
      "borough": null,
      "street": "пров 1-й Кармелюка",
      "build_num": "5",
      "dk_018_2000": null,
      "aimap_classifier": "Будівлі АПК",
      "consequence_class": "1",
      "object_type": null,
      "stage_documentation": "повідомлення про початок виконання будівельних робіт",
      "stage_building": "дозволено",
      "construction_type": "нове будівництво",
      "construction_method": null,
      "date_reg": null,
      "date_added": "2021-07-27T00:00:00Z",
      "date_updated": null,
      "object_square": null,
      "floors_number": null,
      "myo_id": null,
      "projdoc_id": null,
      "cd_doc_id": null
    },
    {
      "hash_id": "2726455",
      "name": "будівництво житлового будинку, гаража та господарської будівлі по вул. лесі українки в с. новий корець, корецька територіальна громада, рівненський район. рівненська область",
      "description": null,
      "lon": "27.13266037208819",
      "lat": "50.611913846926385",
      "address": "рівненська обл., рівненський район, корецька територіальна громада, с. новий корець (станом на 01.01.2021), вулиця лесі українки",
      "address_description": null,
      "formatted_address": "Рівненська область, с Новий Корець",
      "postal_code": "34704",
      "country": "Україна",
      "region": "Рівненська область",
      "district": "Рівненський район",
      "town": "с Новий Корець",
      "borough": null,
      "street": null,
      "build_num": null,
      "dk_018_2000": null,
      "aimap_classifier": "Гаражі, стоянки, СТО",
      "consequence_class": "1",
      "object_type": null,
      "stage_documentation": "повідомлення про початок виконання будівельних робіт",
      "stage_building": "дозволено",
      "construction_type": "нове будівництво",
      "construction_method": null,
      "date_reg": null,
      "date_added": "2021-07-29T00:00:00Z",
      "date_updated": null,
      "object_square": null,
      "floors_number": null,
      "myo_id": null,
      "projdoc_id": null,
      "cd_doc_id": null
    },
    {
      "hash_id": "2862104b73856ea03251ff19846859c2",
      "name": "будівництво індивідуального гаража",
      "description": null,
      "lon": "30.8882769667985",
      "lat": "49.53242913566987",
      "address": "київська обл., обухівський район, богуславська територіальна громада, м. богуслав (станом на 01.01.2021), вулиця будівельна, 162",
      "address_description": null,
      "formatted_address": "Київська область, м Богуслав, вул Будівельна, 162",
      "postal_code": null,
      "country": null,
      "region": "Київська область",
      "district": "Обухівський район",
      "town": "м Богуслав",
      "borough": null,
      "street": "вул Будівельна",
      "build_num": "162",
      "dk_018_2000": null,
      "aimap_classifier": "Гаражі, стоянки, СТО",
      "consequence_class": "1",
      "object_type": null,
      "stage_documentation": "повідомлення про початок виконання будівельних робіт",
      "stage_building": "дозволено",
      "construction_type": "нове будівництво",
      "construction_method": null,
      "date_reg": null,
      "date_added": "2021-07-28T00:00:00Z",
      "date_updated": null,
      "object_square": null,
      "floors_number": null,
      "myo_id": null,
      "projdoc_id": null,
      "cd_doc_id": null
    },
    {
      "hash_id": "66b992919fcfd59867213b719516f1a8",
      "name": "будівництво гаража по вул. шкільній, 28 в смт. турбів, вінницького району, вінницької області",
      "description": null,
      "lon": "28.722107692527437",
      "lat": "49.34588826129543",
      "address": "вінницька обл., вінницький район, турбівська територіальна громада, смт турбів (станом на 01.01.2021), вулиця шкільна, 28",
      "address_description": null,
      "formatted_address": "Вінницька область, смт Турбів, вул Шкільна, 28",
      "postal_code": null,
      "country": null,
      "region": "Вінницька область",
      "district": "Вінницький район",
      "town": "смт Турбів",
      "borough": null,
      "street": "вул Шкільна",
      "build_num": "28",
      "dk_018_2000": null,
      "aimap_classifier": "Гаражі, стоянки, СТО",
      "consequence_class": "1",
      "object_type": null,
      "stage_documentation": "повідомлення про початок виконання будівельних робіт",
      "stage_building": "дозволено",
      "construction_type": "нове будівництво",
      "construction_method": null,
      "date_reg": null,
      "date_added": "2021-07-28T00:00:00Z",
      "date_updated": null,
      "object_square": null,
      "floors_number": null,
      "myo_id": null,
      "projdoc_id": null,
      "cd_doc_id": null
    }
  ]
}